[{"cafes":[{"oneword":"小雪见大雪，大雪大如席，今冬又一场雪，整个城市一夜之间变成一片洁白与安静的。迎着雪景，伴着雪后的寒冷，雕刻时光在北京的又一家店开业了——望京麒麟社店。","poster":"https:\/\/raw.githubusercontent.com\/flexih\/flexih.github.io\/master\/coffee\/poster\/cc64d5b0fe27697b562a3e53d91989b4_t.jpg","phones":["010-57389692","010-57389693"],"addr":"朝阳区阜通西大街合生麒麟新天地10号楼10-9和10-16","lat":"39.99767","opening":"10:00-24:00","name":"麒麟社店","lng":"116.47715"},{"oneword":"工业风的咖啡馆，坐在喜欢的靠窗座位，倚靠小桌，摆上几株花草，观察玻璃般的草叶，呼吸充满咖啡香的气息，在洋洋洒洒的阳光下，一待就是一整下午。","poster":"https:\/\/raw.githubusercontent.com\/flexih\/flexih.github.io\/master\/coffee\/poster\/ea5f8f511201245067c5150f4a53552b_t.jpg","phones":["010-52800366","010-52800368"],"addr":"朝阳区四惠东地铁华腾世纪总部公园5号楼1层（尚八里文创园B座对面）","lat":"39.911629","opening":"9:00-21:00","name":"四惠东店","lng":"116.510246"},{"oneword":"我们走过的路旁尽是美景，路上奔驰的汽车， 载着我的心声，驶向远方，朦胧中，看到一点绿，那贱贱的小猫，已这里扎根，静静等候，与我们相遇。","poster":"https:\/\/raw.githubusercontent.com\/flexih\/flexih.github.io\/master\/coffee\/poster\/b835f17a5bda89b928804d381e17cab4_t.jpg","phones":["010-65005365"],"addr":"朝阳区工体东路16号（中国外文书店旁）","lat":"39.92581","opening":"8:00-00:30","name":"工体店","lng":"116.4507"},{"oneword":"犹如期待很久的画面，男生女生终于面对面坐在了一起，美食、阳光、咖啡香气、还有那深情的眼神。","poster":"https:\/\/raw.githubusercontent.com\/flexih\/flexih.github.io\/master\/coffee\/poster\/fc4ae0ea37485e0e572f87dfcbb95841_t.jpg","phones":["010-51734696"],"addr":"海淀区清华东路16号艺海大厦二层","lat":"40.00018717","opening":"9:00-00:00","name":"清华东路店","lng":"116.3499997"},{"oneword":"时尚现代的欧美汇购物中心，暗藏一个书香、花香与咖啡香弥漫的咖啡馆。暂别繁杂的工作，偷得浮生半日闲，宜静宜动两相宜。","poster":"https:\/\/raw.githubusercontent.com\/flexih\/flexih.github.io\/master\/coffee\/poster\/415bf94a26dadffa447fa8aadc9b0bc1_t.jpg","phones":["010-82484551"],"addr":"海淀区中关村丹棱街甲1号欧美汇购物中心F3-06","lat":"39.9793281555176","opening":"10:00-22:00","name":"欧美汇店","lng":"116.315139770508"},{"oneword":"看得见城铁的咖啡馆，一如流光溢彩的车站，汇集了形形色色的时光过客....","poster":"https:\/\/raw.githubusercontent.com\/flexih\/flexih.github.io\/master\/coffee\/poster\/8310736e8589a5496a594fb0f7f59053_t.JPG","phones":["010-82863094"],"addr":"成府路华清嘉园12号楼2号3F（五道口城铁对面）","lat":"39.99211561","opening":"8:30-01:00","name":"五道口店","lng":"116.3364665"},{"oneword":"时光特色的图书和细品生活的杂货都在咖啡香气的包裹里变得可能，在书中探索，在光影中发现，在杂货里分享生活兴致……","poster":"https:\/\/raw.githubusercontent.com\/flexih\/flexih.github.io\/master\/coffee\/poster\/18471cbca7fdbb4d82ba3bed6a7f23ad_t.jpg","phones":["010-84036986"],"addr":"北京东城区美术馆东街22号三联书店2楼","lat":"39.92612","opening":"24小时","name":"三联店","lng":"116.41151"},{"oneword":"一家咖啡馆，给了我们登山的第101个理由。香山新店依旧在热闹的买卖街上静候，为出行的朋友随时呈上一份熟悉的香浓。","poster":"https:\/\/raw.githubusercontent.com\/flexih\/flexih.github.io\/master\/coffee\/poster\/106399011f9c5691ad9bd022ee993a46_t.jpg","phones":["010—82590040"],"addr":"海淀区香山买卖街甲11号（香山公园东门100米）","lat":"39.992024","opening":"9:30-23:00","name":"香山店","lng":"116.19884"},{"oneword":"绿槐高柳咽新蝉，薰风初入弦。夏日的脚步渐渐临近，一窗之隔外面的世界嘈杂喧嚣，这里的时光载着这一丝宁静……","poster":"https:\/\/raw.githubusercontent.com\/flexih\/flexih.github.io\/master\/coffee\/poster\/fff64d470d3a82bbe5bbc4d43cb86289_t.jpg","phones":["010-62647308"],"addr":"海淀区西大街39号2层 （海淀图书城步行街内邮局旁）（营业时间：9：00— 22:00）","lat":"39.9835430000025","opening":"9:00-22:00","name":"海图店","lng":"116.306571999864"},{"oneword":"公园五号店，如它的名字，与公园有缘。带着最大城市公园的青草香，掉进咖啡乡。一呼一吸间，在偶尔放松的精神世界里游弋。","poster":"https:\/\/raw.githubusercontent.com\/flexih\/flexih.github.io\/master\/coffee\/poster\/29e8aec5bc46b8ba059e46dad8f69596_t.jpg","phones":["010-65996028"],"addr":"北京朝阳区朝阳公园南500米万科公园5号（朝阳公园往南约500米）","lat":"39.926072","opening":"8:00-23:00","name":"公园五号店","lng":"116.477819"},{"oneword":"找一个靠窗的位置坐下，墙角一束阳光懒懒的照着，手边咖啡的芬芳让你忘却了忧人的烦恼，慢慢地打开记忆的枷锁，放飞你那禁锢的梦想。","poster":"https:\/\/raw.githubusercontent.com\/flexih\/flexih.github.io\/master\/coffee\/poster\/708072871b909eaa08a6453d1d6405f3_t.jpg","phones":["010-64823675"],"addr":"朝阳区惠新东街11号紫光发展大厦A座2F（外经贸大学西门）","lat":"39.9807881","opening":"7:30-24:00","name":"外经贸店","lng":"116.4237624"},{"oneword":"位于魏公村路上的雕刻时光，无论何时，无论从哪个角度看过去，都是一幅可以伴着咖啡细嚼慢咽的风景。","poster":"https:\/\/raw.githubusercontent.com\/flexih\/flexih.github.io\/master\/coffee\/poster\/46f5414c93b7334522bb0a89fd20eab4_t.jpg","phones":["010-68946825"],"addr":"海淀区魏公村7号（北理工大学南门西楼2楼）","lat":"39.957088","opening":"8:00-00:30","name":"魏公村店","lng":"116.311231"},{"oneword":"临近北京师范大学南门的咖啡馆，惬意的单层隔位空间，提供更广角的开阔视野，与树木一起享受光照，空气中弥漫着咖啡的浓香，心情变得透亮异常，贴地飞行的旅程已经开始……","poster":"https:\/\/raw.githubusercontent.com\/flexih\/flexih.github.io\/master\/coffee\/poster\/5eedcdf8125a43df69b4f88b58d70255_t.jpg","phones":["010-62237224"],"addr":"海淀区学院南路甲10号（北师大小南门对面）","lat":"39.957662","opening":"8:00-00:30","name":"北师大店","lng":"116.365967"},{"oneword":"雕刻时光的首家校园店，远离车水马龙的喧嚣。大厅的落地玻璃窗外绿树成荫，花草丛生，尽揽校园风光。","poster":"https:\/\/raw.githubusercontent.com\/flexih\/flexih.github.io\/master\/coffee\/poster\/7e93ac7e5859bfd2143d16c0073cc8cf_t.jpg","phones":["010-82310664"],"addr":"海淀区学院路37号北京航空航天大学天行网球馆旁","lat":"39.97996","opening":"8:00-24:00","name":"北航店","lng":"116.3482"},{"oneword":"","poster":"https:\/\/raw.githubusercontent.com\/flexih\/flexih.github.io\/master\/coffee\/poster\/20150104_073257_190.jpg","phones":["010-60221997"],"addr":"大兴区西红门地铁荟聚购物商城中心三层2-03-44C","lat":"39.7896","opening":"10:00-22:00","name":"宜家店","lng":"116.32844"},{"oneword":"在这里 我们享受咖啡 我们让时光慢慢雕刻 同时也品尝每一杯咖啡背后的小心情，小情绪","poster":"https:\/\/raw.githubusercontent.com\/flexih\/flexih.github.io\/master\/coffee\/poster\/92914efd7563881a0c1b0ae5a7db548d_t.JPG","phones":["010-848937665","010-84937087"],"addr":"北京市朝阳区北苑路28号院1号楼（北苑家园旁边）潮驿178内一层","lat":"40.040748","opening":"10:00-22:00","name":"北苑店","lng":"116.416682"}],"city":"北京"},{"cafes":[{"oneword":"咖啡醉人就醉在那场没有收场的故事里，看故事继续，看人物走台落幕，就那样呆呆的沉醉没有理由。","poster":"https:\/\/raw.githubusercontent.com\/flexih\/flexih.github.io\/master\/coffee\/poster\/6a8b3e6bd8925477a229faee1ac395c0_t.jpg","phones":["0313-4064050"],"addr":"经开区胜利中路172号金鹰悦城（3层）","lat":"40.768868","lng":"114.902657","name":"金鹰悦城店"}],"city":"张家口"},{"cafes":[{"oneword":"文艺、复古、清静、闲适...曾经，这些事我们唯一的代名词，青春、活动、跳动、热情...现在，它们也可以为我们做起代言，让无悔的青春，在文艺的微风中，起航飞翔。","poster":"https:\/\/raw.githubusercontent.com\/flexih\/flexih.github.io\/master\/coffee\/poster\/4a097affedf5bbf4688240725df6730a_t.jpg","phones":["0351-4411115","0351-4411119"],"addr":"小店区寇庄西路109号","lat":"37.82064103","opening":"8:30-23:00","name":"亲贤店","lng":"112.5577917"}],"city":"太原"},{"cafes":[{"oneword":"都市的喧嚣，被一抹浓郁的咖啡香气冲散；时光停留，重逢着久违的自己。在这里，握住一份温暖，守护一片宁静，找回心灵的澄静，雕刻着美好时光。","poster":"https:\/\/raw.githubusercontent.com\/flexih\/flexih.github.io\/master\/coffee\/poster\/c513fd2041822961973c0d932c83aa61_t.jpg","phones":["029-86275001"],"addr":"龙首北路西段2-5号（西安市未央区区政府对面）","lat":"34.29256","opening":"8:30-23:30","name":"龙首店","lng":"108.94625"},{"oneword":"當春暖花开时，岁月静好；雕刻时光，守住了最初的青春和欣喜，温暖着现在的成熟与感动。在这里，你可以尽情享受那份青春时的欣喜，或是享受那份成熟时的感动。","poster":"https:\/\/raw.githubusercontent.com\/flexih\/flexih.github.io\/master\/coffee\/poster\/ab1d1d8f14ab3f37e8522b5dfce83f8d_t.png","phones":["029-84152961"],"addr":"长安区韦郭路909号（陕西师范大学长安校区对面）","lat":"34.15801","opening":"9:00-24:00","name":"大学城店","lng":"108.89535"},{"oneword":"只要是晴天 全天候阳光照射的店面","poster":"https:\/\/raw.githubusercontent.com\/flexih\/flexih.github.io\/master\/coffee\/poster\/e0510b41c98b94071044520333ceba84_t.jpg","phones":["029-87625857"],"addr":"碑林区南院门47号(五味十字向东200米)","lat":"34.25571","opening":"9:00-01:00","name":"南院门店","lng":"108.94039"},{"oneword":"浩瀚书海中的惊鸿一瞥，不经意间的灵光乍现，在书海中品味淡淡的咖啡香，别有一番风味。在某个下午，高新区的你会忙中偷闲来到这里，仅仅是在端起咖啡的瞬间想起谁","poster":"https:\/\/raw.githubusercontent.com\/flexih\/flexih.github.io\/master\/coffee\/poster\/623fcb7f0ae8d415f0d63d8558cd35b0_t.jpg","phones":["029-88860857"],"addr":"高新区科技路55号（高新创业广场西侧","lat":"34.235878","opening":"8:30-23:30","name":"金桥店","lng":"108.89265"},{"oneword":"在不断变化的城市里，觅得一个安静的角落：不爱浮华气，不爱颓唐风，它偏偏恋上了满眼梧桐绿，娴静的书卷味，在西安师大店，将胶片心情延续，与你一起分享着点滴感动……","poster":"https:\/\/raw.githubusercontent.com\/flexih\/flexih.github.io\/master\/coffee\/poster\/91b0a2fcaa1c79ab843f885c3490a4da_t.jpg","phones":["029-85228182"],"addr":"雁塔区师大路41号2楼（西安外国语大学正门往东100米）","lat":"34.2052234","opening":"8:30-23:30","name":"师大店","lng":"108.9489187"},{"oneword":"镜像西安另一面，古着气质自然游走每个角落，或阅读或创作、或享受，这里都会延伸出极好的发散空间。","poster":"https:\/\/raw.githubusercontent.com\/flexih\/flexih.github.io\/master\/coffee\/poster\/9dfac160868293c72c9c520074819fb4_t.jpg","phones":["029-85375772"],"addr":"碑林区咸宁西路28号，交大一村四舍（交大商场往西500米） ","lat":"34.2508323","opening":"8:30-23:30","name":"交大店","lng":"108.9896673"}],"city":"西安"},{"cafes":[{"oneword":"咖啡醉人就醉在那场没有收场的故事里，看故事继续，看人物走台落幕，就那样呆呆的沉醉没有理由。","poster":"https:\/\/raw.githubusercontent.com\/flexih\/flexih.github.io\/master\/coffee\/poster\/31da9ef4fcb3a46eaeb121d93f988fc4_t.jpg","phones":["0371-86561928"],"addr":"金水区优胜北路3号（天下城小区北门对面）","lat":"34.7693","opening":"8:00-24:00","name":"优胜北路店","lng":"113.66264"}],"city":"郑州"},{"cafes":[{"oneword":"阳光隔着雾气懒散的洒进窗，整齐的书柜，静谧的音乐，空气里弥漫着浓郁的咖啡香，城市的喧闹顿时化为了安宁。","poster":"https:\/\/raw.githubusercontent.com\/flexih\/flexih.github.io\/master\/coffee\/poster\/6ef15575f2d16cdcdefafca9c70253a5_t.jpg","phones":["023-65050933"],"addr":"沙坪坝区小新街99号立海大厦2F（重庆一中大门斜对面）","lat":"29.55949858","opening":"8:30-24:00","name":"小新街店","lng":"106.4623054"}],"city":"重庆"},{"cafes":[{"oneword":"这里是林城繁华都市里的一片宁静森林， 空气中浮动着的是咖啡和书墨的香气， 阳光漫过玻璃，洒落到窗边、圆木桌、书架上，是触手可及的读书时光。","poster":"https:\/\/raw.githubusercontent.com\/flexih\/flexih.github.io\/master\/coffee\/poster\/e3e41c6bf87e75865bdca58fe07aff8a_t.jpg","phones":["0851-5620901"],"addr":"南明区文昌南路33号亨特城市广场2楼","lat":"26.575587","opening":"10:30-22:00","name":"亨特店","lng":"106.719283"}],"city":"贵阳"},{"cafes":[{"oneword":"都说,世间所有的相遇都是久别重逢。 十月，你飘洋过海而来，我穿过十几个城市， 从秋天到春天，终于在彩云之南的翠湖畔，相遇。","poster":"https:\/\/raw.githubusercontent.com\/flexih\/flexih.github.io\/master\/coffee\/poster\/198ed1bfab0d35e1383cbd9017f9a76e_t.jpg","phones":["0871-63610318"],"addr":"五华区翠湖北路28号（云南大学正门口向西50米路北）","lat":"25.0514378","opening":"10:00-22:00","name":"翠湖店","lng":"102.7026665"}],"city":"昆明"},{"cafes":[{"oneword":"坐在窗边，一缕阳光照射进来，遥望澜沧江 手捧一杯咖啡，感受它的温度，品尝它的醇香","poster":"https:\/\/raw.githubusercontent.com\/flexih\/flexih.github.io\/master\/coffee\/poster\/c47689e9c2093bb30c2f7927f348d586_t.jpg","phones":["0691-2261508"],"addr":"景洪市告庄景岱寨湄公河人家A栋110号","lat":"22.00641","lng":"100.82232","name":"西双版纳店"}],"city":"西双版纳"},{"cafes":[{"oneword":"红瓦、绿树、碧海、青山，一座拥有欧陆风情的滨海之城青岛。随着山路的曲线，迎着海风的方向，雕刻时光咖啡馆在与青岛大学为邻的地方，静静的散发着咖啡香气。","poster":"https:\/\/raw.githubusercontent.com\/flexih\/flexih.github.io\/master\/coffee\/poster\/c6942e5c93f192ac9d7104fdefeb2664_t.jpg","phones":["0532-67783678"],"addr":"崂山区香港东路18-1（青大东院南门对面）","lat":"36.0677262","opening":"9:00-24:00","name":"青大店","lng":"120.4274744"}],"city":"青岛"},{"cafes":[{"oneword":"临岸而坐，秦淮之美一览无遗，一杯下午茶，或一杯香气四溢的咖啡，让你细细感悟这“江南锦绣之邦，金陵风雅之薮”的“十里秦淮”古韵魅力。","poster":"https:\/\/raw.githubusercontent.com\/flexih\/flexih.github.io\/master\/coffee\/poster\/56f9552642d9bc0da2cff2dd8da9692d_t.jpg","phones":["025-52266082"],"addr":"秦淮区大石坝街32号（夫子庙东门）","lat":"32.0213900004372","opening":"9:00-24:00","name":"夫子庙店","lng":"118.793210000045"},{"oneword":"生活与享受交错变化的南方城市，将咖啡香气径自延伸到最大愉悦，与众多南京院校为邻的南大店，等候你用散步的时间来欣赏精彩。","poster":"https:\/\/raw.githubusercontent.com\/flexih\/flexih.github.io\/master\/coffee\/poster\/5f2d243960acad2b557c9e9f6fa88be7_t.jpg","phones":["025-83597180"],"addr":"鼓楼区汉口路47号二楼(南大正南门)","lat":"32.053496","opening":"8:30-24:00","name":"南大店","lng":"118.778726"}],"city":"南京"},{"cafes":[{"oneword":"我们越来越陌生了，面对行走的人群，没有任何沟通。 长大了，似乎把自己给遗忘在成长道路上的某个角落。 开始迷恋和自己相处的日子，和一直陪伴的咖啡香。","poster":"https:\/\/raw.githubusercontent.com\/flexih\/flexih.github.io\/master\/coffee\/poster\/5e7c457e48b02147ace3050cbc50ea4a_t.jpg","phones":["021-36506177"],"addr":"宝山区永乐路718号","lat":"31.39114","opening":"9:00-22:00","name":"永乐路店","lng":"121.4891"},{"oneword":"阳光灿烂的日子里，女孩坐在男孩的自行车上，穿过校区小道，是纯洁的爱，那个纯洁显得无上的高贵。那辆十七岁的单车，似乎是青春唯一的证据。","poster":"https:\/\/raw.githubusercontent.com\/flexih\/flexih.github.io\/master\/coffee\/poster\/19a72ff33729cfd815bb2423d31a6466_t.jpg","phones":["021-61625005"],"addr":"浦东新区金海路2605号2楼","lat":"31.26602","opening":"10:00-22:00","name":"金海路店","lng":"121.65483"},{"oneword":"新鲜、美味的食物快速呈现，优雅轻快的文艺小调；某个角落里书籍、有机食品、杂货安静陈列,让人恍惚之间有到了欧美街角小店的错觉。","poster":"https:\/\/raw.githubusercontent.com\/flexih\/flexih.github.io\/master\/coffee\/poster\/00978ead511a506ba9ccfb5aa4685296_t.jpg","phones":["021-55227596"],"addr":"杨浦区大学路318号（近国定路）","lat":"31.30298","opening":"9:30-22:00","name":"时光小站","lng":"121.50748"},{"oneword":"清晨的窗外，露珠在叶片中滚动，看着财大、同和留学生村的大学生们年轻的身影将青春演绎的最完美，最生动。","poster":"https:\/\/raw.githubusercontent.com\/flexih\/flexih.github.io\/master\/coffee\/poster\/0e91f652d4967f3edd4b7a408c6394fc_t.jpg","phones":["021-55660797"],"addr":"武东路28弄1号（同和国际留学生村旁）","lat":"31.3014","opening":"8:00-22:00","name":"同和店","lng":"121.50037"},{"oneword":"悦达广场的某个转角，偶然遇见流淌时光痕迹的咖啡馆在此坐落，咖啡香气弥漫，耳边爵士乐低吟浅唱。","poster":"https:\/\/raw.githubusercontent.com\/flexih\/flexih.github.io\/master\/coffee\/poster\/61465c98d86fb303f246d7f8d614e827_t.jpg","phones":["021—62093027"],"addr":"静安区万航渡路889号,悦达889广场L2-19","lat":"31.229301","opening":"10:00-22:00","name":"悦达889店","lng":"121.428623"},{"oneword":"宽阔的空间，记忆中的玩具、泛黄的书籍、经典的电影，在红坊店都是浑然天成。旧时的回忆在此沉淀，欢迎来到你的都市玩具馆。","poster":"https:\/\/raw.githubusercontent.com\/flexih\/flexih.github.io\/master\/coffee\/poster\/9efca51f17bcbe4fc3ba74e44a53a19a_t.jpg","phones":["021-52588218"],"addr":"长宁区淮海西路570号B111","lat":"31.19927","opening":"8:00-22:00","name":"红坊店","lng":"121.4251"},{"oneword":"宽阔的空间，记忆中的玩具、泛黄的书籍、经典的电影，在红坊店都是浑然天成。旧时的回忆在此沉淀，欢迎来到你的都市玩具馆。","poster":"https:\/\/raw.githubusercontent.com\/flexih\/flexih.github.io\/master\/coffee\/poster\/9efca51f17bcbe4fc3ba74e44a53a19a_t.jpg","phones":["021-36530783"],"addr":"闸北区西藏北路166号上海大悦城5F-25号","lat":"31.2425080978389","opening":"10:00-22:00","name":"大悦城店","lng":"121.471989154816"},{"oneword":"矗立在瑰丽璀璨的上海滩，周遭是宁静和慢品生活，仿佛梦想和现实融合的街道，在转角处，终于在转角处，可以遇见一座咖啡馆。","poster":"https:\/\/raw.githubusercontent.com\/flexih\/flexih.github.io\/master\/coffee\/poster\/4935d7cb5a6c706a967ab5c6a73f7f23_t.jpg","phones":["021-35050369"],"addr":"杨浦区大学路105-107","lat":"31.30298","opening":"9:30-23:00","name":"大学路店","lng":"121.50748"},{"oneword":"","poster":"https:\/\/raw.githubusercontent.com\/flexih\/flexih.github.io\/master\/coffee\/poster\/20141229_082549_160.jpg","phones":["021-33765616"],"addr":"卢湾区南昌路116号（近雁荡路）","lat":"31.219136","opening":"9:00-21:30","name":"南昌路店","lng":"121.468367"}],"city":"上海"},{"cafes":[{"oneword":"旅行是一把钥匙，轻轻旋动，一个全新世界扑面而来。我们都是旅人，坚持着梦想努力地、美好地生活！","poster":"https:\/\/raw.githubusercontent.com\/flexih\/flexih.github.io\/master\/coffee\/poster\/3166409535527ed44900b9476b8d55d4_t.jpg","phones":["0512-66556218"],"addr":"吴中区孙武路2013号太湖游客中心一楼","lat":"31.22442","opening":"9:00-24:00","name":"太湖游客中心店","lng":"120.45108"}],"city":"苏州"},{"cafes":[{"oneword":"一杯咖啡，消磨半日，一次阅读，行云流水。","poster":"https:\/\/raw.githubusercontent.com\/flexih\/flexih.github.io\/master\/coffee\/poster\/756b7e67eb7de5b88a15f2efbe6c19b4_t.jpg","phones":["0514-87315633"],"addr":"汶河南路75号文昌广场工人文化宫2楼","lat":"32.39232108","opening":"9:00-24:00","name":"文昌店","lng":"119.434676"}],"city":"扬州"},{"cafes":[{"oneword":"曾经的繁华旧貌，落入历史档案；曾经的温雅文句，记录时光变迁；将这一切都编入馆内，成为时光的书卷。","poster":"https:\/\/raw.githubusercontent.com\/flexih\/flexih.github.io\/master\/coffee\/poster\/e9e1bb00b6360e876426ab16cf2077d0_t.jpg","phones":["0510-85888348"],"addr":"湖滨路11号运河外滩","lat":"31.554999","opening":"10:00-22:00","name":"运河外滩店","lng":"120.28506"}],"city":"无锡"},{"cafes":[{"oneword":"砖墙、红帘、木桌，开阔与精致错落的窗户，煮一杯咖啡，懒懒地坐在沙发里发呆，或选择邻窗木椅处理工作。","poster":"https:\/\/raw.githubusercontent.com\/flexih\/flexih.github.io\/master\/coffee\/poster\/f455d45feab0bf7fccc67e27ef34d2c7_t.jpg","phones":["0539-8888887"],"addr":"兰山区涑河南街万兴都商业公园3号楼北座","lat":"35.07708","opening":"9:00-22:00","name":"万兴都商业公园店","lng":"118.34419"}],"city":"临沂"},{"cafes":[{"oneword":"自然与学术的气息在此渗透，充满创造与活动力的人文港湾在此建筑。木质的地板与桌椅，安静成列的电影海报，堆满书籍、杂志的书架，一如以往的简单与舒适。","poster":"https:\/\/raw.githubusercontent.com\/flexih\/flexih.github.io\/master\/coffee\/poster\/94a2dfd3a081b58f61c8ada79052a787_t.jpg","phones":["0591-88511177"],"addr":"仓山区上三路师大临街C楼二层（戴斯酒店西侧）","lat":"26.037298","opening":"9:00-23:30","name":"师大店","lng":"119.311453"}],"city":"福州"},{"cafes":[{"oneword":"微风轻拂，凤凰花摇曳，喷泉在阳光照耀下有着道道彩虹，从落地玻璃窗往外望去，是如此的自然美丽。","poster":"https:\/\/raw.githubusercontent.com\/flexih\/flexih.github.io\/master\/coffee\/poster\/5225911e6c72c506351b1cb0dfa3fe9d_t.jpg","phones":["0755—26603991"],"addr":"南山区华侨城生态广场A110","lat":"22.5377349853516","opening":"9:00-24:00","name":"华侨城店","lng":"113.983383178711"},{"oneword":"","poster":"https:\/\/raw.githubusercontent.com\/flexih\/flexih.github.io\/master\/coffee\/poster\/SlAdg8ie3TbdLe-VvrX0J2oYElD76mqrRIrehchebuBjRCRX_cVL81Spz4gYtEprTYGVDmosZWTLal1WbWRW3A.jpg","phones":["0755—21616223"],"addr":"南山蛇口工业区南海意库创意园5栋116-117","lat":"22.486818305122","opening":"9:00-24:00","name":"南海意库店","lng":"113.91780951606"}],"city":"深圳"},{"cafes":[{"oneword":"「雕刻时光咖啡馆广州大学城店」11月15日 我们来咯","poster":"https:\/\/raw.githubusercontent.com\/flexih\/flexih.github.io\/master\/coffee\/poster\/4ffff69a421342f4e40d0a93cded15af_t.jpg","phones":["020-39115086"],"addr":"番禺区大学城中环西路230号广州大学商业中心C区2F","lat":"23.04135","opening":"9:00-24:00","name":"大学城店","lng":"113.37214"},{"oneword":"一座临近五山地铁站的咖啡馆，这是广州首家雕刻时光。身处华南农业大学与华南理工大学的莘莘学子之中，随着时光游走，在朝气蓬勃与绿色优雅中尽情品尝咖啡香气。","poster":"https:\/\/raw.githubusercontent.com\/flexih\/flexih.github.io\/master\/coffee\/poster\/732a63a9cdb3dae74bf947a62052183a_t.JPG","phones":["020-85280966"],"addr":"天河区岳洲路39号2F（五山地铁站B1口左转步行两三百米）","lat":"23.152343","opening":"9:00-23:00","name":"五山店","lng":"113.354064"}],"city":"广州"},{"cafes":[{"oneword":"6月的岳麓山下，有刚刚好的阳光，和刚刚好的树荫。雕刻时光咖啡馆长沙首店就在这里，青春盛开。","poster":"https:\/\/raw.githubusercontent.com\/flexih\/flexih.github.io\/master\/coffee\/poster\/700bae3b298a8532747f0aafcfd3aee3_t.jpg","phones":["0731-85771997"],"addr":"岳麓区阜埠河路109号潇湘大厦2楼（天马公寓旁）","lat":"28.167424316406","opening":"9:00-24:00","name":"天马公寓店","lng":"112.9462234158"}],"city":"长沙"}]